[
  {
    "id": "1:de:08326:1558",
    "name": "Furtwangen Stadtkirche",
    "lat": 48.050348,
    "lon": 8.20523,
    "dist": 367
  },
  {
    "id": "1:de:08326:1916",
    "name": "Furtwangen Robert-Gerwigschule",
    "lat": 48.047675,
    "lon": 8.21406,
    "dist": 369
  },
  {
    "id": "1:de:08326:1295",
    "name": "Furtwangen Rabenstraße",
    "lat": 48.049765,
    "lon": 8.19851,
    "dist": 808
  },
  {
    "id": "1:de:08326:1626",
    "name": "Furtwangen Friedrichschule",
    "lat": 48.054017,
    "lon": 8.204951,
    "dist": 701
  },
  {
    "id": "1:de:08326:1737",
    "name": "Furtwangen Allmendstraße",
    "lat": 48.049765,
    "lon": 8.21424,
    "dist": 404
  },
  {
    "id": "1:de:08326:491",
    "name": "Furtwangen Otto-Hahn-Gym.",
    "lat": 48.051591,
    "lon": 8.197585,
    "dist": 933
  },
  {
    "id": "1:de:08326:1181",
    "name": "Furtwangen Rößleplatz",
    "lat": 48.052768,
    "lon": 8.207098,
    "dist": 511
  },
  {
    "id": "1:de:08326:490",
    "name": "Furtwangen Ilbenstraße",
    "lat": 48.047922,
    "lon": 8.198995,
    "dist": 759
  }
]